Stop_name,Stop_id,Opposite_stop_id,Max_dwell,Min_dwell,Turnaround_time,Capacity,Turn_time,Length,Stop_location,Track_1,Track_2,plat_out_join_id,plat_out_join_length,plat_out_join_Section,plat_out_join_dist_bost
CantonJunction_2,1,,,,,,30,167,,BOS_2,,3889,3017.274,BOS,0.202
CantonJunction_4,2,,,,,,30,200,,CAN_4,,675,481.33,CAN,0.212
CantonJunction_3,3,,,,,,30,242,,CAN_3,,674,415.546,CAN,0.212
CantonJunction_1,4,,,,,,30,260,,BOS_1,,3888,673.739,BOS,0.216
Route128_2,5,,,,,,30,400,,BOS_2,,3885,4662.487,BOS,0.162
Route128_1,6,,,,,,30,321,,BOS_1,,4623,4662.54,BOS,0.162
BackBay_1_3,8,,,,,,30,316,,BOS_1,BOS_3,3814,429.547,BOS,0.018
BackBay_2,9,,,,,,30,316,,BOS_2,,3821,180.071,BOS,0.021
Ruggles_2,10,,,,,,30,242,,BOS_2,,3824,1979.097,BOS,0.032
SouthStation_6_7,11,,,,,,30,298,,STA_SS_6,STA_SS_7,658,342.701,STA_SS,0.002
SouthStation_8_9,12,,,,,,30,323,,STA_SS_8,STA_SS_9,664,387.654,STA_SS,0.002
SouthStation_10_11,13,,,,,,30,320,,STA_SS_10,STA_SS_11,662,343.87,STA_SS,0.002
SouthStation_12_13,14,,,,,,30,207,,STA_SS_12,STA_SS_13,660,267.916,STA_SS,0.001
SouthStation_1,16,,,,,,30,216,,STA_SS_1,,393,233.099,STA_SS,0.001
SouthStation_2_3,17,,,,,,30,216,,STA_SS_2,STA_SS_3,655,399.797,STA_SS,0.001
SouthStation_4_5,18,,,,,,30,274,,STA_SS_4,STA_SS_5,656,301.478,STA_SS,0.002
NewarkLiberty_1_A,19,,,,,,30,320,,PENN_1,ELI_A,3771,3005.17,PENN,3.545
NewarkLiberty_4_5,20,,,,,,30,320,,PENN_4,ELI_5,2412,3000.964,PENN,3.545
NewHavenCR_2_4,21,,,,,,30,84,,NH_2,NH_4,4474,577.484,NH,2.139
WashUnion_1_2,22,,,,,,30,223,,STA_DCU_2,STA_DCU_1,2594,308.83,STA_DCU,6.878
WashUnion_13_14,23,,,,,,30,262,,STA_DCU_14,STA_DCU_13,2652,94.772,STA_DCU,6.879
WashUnion_12_13,24,,,,,,30,218,,STA_DCU_12,STA_DCU_13,2560,399.339,STA_DCU,6.878
WashUnion_21_22,25,,,,,,30,226,,STA_DCU_22,STA_DCU_21,2640,100.022,STA_DCU,6.88
WashUnion_11_12,26,,,,,,30,248,,STA_DCU_12,STA_DCU_11,2560,399.339,STA_DCU,6.878
WashUnion_17_18,27,,,,,,30,263,,STA_DCU_18,STA_DCU_17,2656,157.939,STA_DCU,6.88
WashUnion_15_16,28,,,,,,30,263,,STA_DCU_16,STA_DCU_15,2654,158.713,STA_DCU,6.88
WashUnion_9_10,29,,,,,,30,258,,STA_DCU_9,STA_DCU_10,2553,350.729,STA_DCU,6.878
WashUnion_19_20,30,,,,,,30,250,,STA_DCU_20,STA_DCU_19,2658,157.932,STA_DCU,6.88
NewCarrollton,31,,,,,,30,245,,SO_2,SO_3,2694,577.789,SO,6.741
Seabrook_3,32,,,,,,30,76,,SO_3,,2716,5141.563,SO,6.683
BowieState_3,33,,,,,,30,76,,SO_3,,2731,900.011,SO,6.61
BowieState_1,34,,,,,,30,76,,SO_1,,2726,902.444,SO,6.61
Seabrook,35,,,,,,30,76,,SO_1,,2711,5141.547,SO,6.683
Odenton_1,36,,,,,,30,243,,SO_1,,2765,607.638,SO,6.526
Odenton_3,37,,,,,,30,213,,SO_3,,2770,599.866,SO,6.526
BWI_3,38,,,,,,30,319,,SO_3,,2803,731.829,SO,6.464
BWI_1,39,,,,,,30,319,,SO_1,,2799,731.372,SO,6.464
WestBaltimore_A,40,,,,,,30,32,,SO_A,,2866,653.163,SO,6.377
WestBaltimore_3,41,,,,,,30,32,,SO_3,,2871,689.652,SO,6.377
Aberdeen_4,45,,,,,,30,77,,ABE_4,,3021,1385.016,ABE,5.85
Edgewood_2,46,,,,,,30,75,,SO_2,,2996,6279.588,SO,6.013
Edgewood_3,47,,,,,,30,75,,SO_3,,3001,6279.472,SO,6.013
Aberdeen_2,48,,,,,,30,77,,SO_2,,3017,1383.538,SO,5.85
Perryville,49,,,,,,30,106,,PER_4,,,,,
Wilmington_2_3,50,,,,,,30,313,,SO_2,SO_3,3144,291.625,SO,5.202
ChurchmansCrossing_1,51,,,,,,30,107,,WIL_1,,3107,1193.202,WIL,5.325
HydePark_2,52,,,,,,30,254,,BOS_2,,3883,375.658,BOS,0.118
HydePark_3,53,,,,,,30,247,,BOS_3,,3882,2304.908,BOS,0.13
Mansfield_1,54,,,,,,30,237,,BOS_1,,3916,16832.336,BOS,0.425
Mansfield_2,55,,,,,,30,151,,BOS_2,,3919,16832.346,BOS,0.425
Attleboro_4,56,,,,,,30,285,,ATT_4,,4594,4744.093,ATT,0.471
Attleboro_3,57,,,,,,30,222,,ATT_3,,4595,2691.243,ATT,0.465
SouthAttleboro_1,58,,,,,,30,257,,BOS_1,,3931,4895.436,BOS,0.54
SouthAttleboro_2,59,,,,,,30,257,,BOS_2,,3932,4902.509,BOS,0.54
Harlem125th_1_3,60,,,,,,30,260,,GC_1,GC_3,1284,6195.464,GC,3.294
Harlem125th_2_4,61,,,,,,30,260,,GC_2,GC_4,2187,6156.848,GC,3.294
Newark_3,62,,,,,,30,41,,SO_3,,3099,4724.805,SO,5.387
FairfieldMetro_3,63,,,,,,30,311,,CCT_3,,2356,1241.077,CCT,2.488
Halethorpe_A,64,,,,,,30,254,,SO_A,,2807,662.373,SO,6.44
Halethorpe_3,65,,,,,,30,254,,SO_3,,2829,786.579,SO,6.44
PrincetonJunction_4,66,,,,,,30,100,,PENN_4,,2458,15299.999,PENN,4.077
PrincetonJunction_1,67,,,,,,30,100,,PENN_1,,3601,15299.979,PENN,4.077
Harrison_3,68,,,,,,30,258,,MID_3,,2400,153.001,PENN,3.494
Harrison_4,69,,,,,,30,258,,MID_4,,2117,462.472,MID,2.995
Mamaroneck_4,70,,,,,,30,260,,MID_4,,2129,4643.239,MID,3.031
Mamaroneck_3,71,,,,,,30,260,,MID_3,,2127,4643.419,MID,3.031
NewRochelle_2_4,72,,,,,,30,220,,"MN_2,MID_4",,,,,
NewRochelle_3,73,,,,,,30,236,,MID_3,,2137,1138.076,MID,3.081
Stratford_3,74,,,,,,30,103,,CCT_3,,1870,1257.861,CCT,2.381
Stratford_4,75,,,,,,30,105,,MID_4,,1873,1258.334,MID,2.381
Darien_3,76,,,,,,30,258,,CCT_3,,1997,639.498,CCT,2.731
Darien_4,77,,,,,,30,267,,MID_4,,2001,640.505,MID,2.731
Fairfield_4,78,,,,,,30,156,,MID_4,,1920,1524.858,MID,2.512
Fairfield_3,79,,,,,,30,156,,CCT_3,,1918,1515.595,CCT,2.512
Rowayton_4,80,,,,,,30,200,,MID_4,,1989,708.16,MID,2.706
Rowayton_3,81,,,,,,30,156,,CCT_3,,1987,708.707,CCT,2.706
Stamford_3_5,82,,,,,,30,311,,CCT_3,MID_5,2032,1212.709,CCT,2.804
Stamford_2_4,83,,,,,,30,311,,MN_2,MID_4,2042,1214.808,MN,2.804
PennMedicine_6_7,84,,,,,,30,136,,WA_6,WA_7,3312,191.753,WA,4.782
NewarkPenn_3_4,85,,,,,,30,292,,PENN_3,PENN_4,3793,798.126,PENN,3.505
NewarkPenn_2,86,,,,,,30,292,,PENN_2,,4607,796.27,PENN,3.505
NewarkPenn_1,87,,,,,,30,292,,NWK_1,,2492,809.158,NWK,3.506
Southport_4,88,,,,,,30,100,,MID_4,,1929,1763.059,MID,2.547
Southport_3,89,,,,,,30,104,,CCT_3,,2357,1764.249,CCT,2.547
Branford_2,90,,,,,,30,62,,BOS_2,,4389,638.303,BOS,2.068
Branford_1,91,,,,,,30,71,,BOS_1,,4388,638.118,BOS,2.068
Guilford_1,92,,,,,,30,63,,BOS_1,,4359,3010.188,BOS,1.937
Guilford_3,93,,,,,,30,63,,GUI_3,,4360,1350.827,GUI,1.943
Clinton_2,94,,,,,,30,62,,BOS_2,,4341,1217.336,BOS,1.819
OldSaybrook_1_3,95,,,,,,30,73,,BOS_1,SAY_3,4449,2134.952,BOS,1.697
OldSaybrook_2,96,,,,,,30,66,,BOS_2,,4451,2134.554,BOS,1.697
Levittown_1,97,,,,,,30,222,,PENN_1,,3553,3672.087,PENN,4.365
Levittown_4,98,,,,,,30,222,,PENN_4,,2497,3666.139,PENN,4.365
WashUnion_3_4,99,,,,,,30,263,,STA_DCU_4,STA_DCU_3,2596,346.353,STA_DCU,6.878
WashUnion_5_6,100,,,,,,30,362,,STA_DCU_6,STA_DCU_5,2579,437.922,STA_DCU,6.878
WashUnion_7_8,101,,,,,,30,234,,STA_DCU_8,STA_DCU_7,2554,415.764,STA_DCU,6.878
Milford_1,102,,,,,,30,100,,NH_1,,1656,843.859,NH,2.299
Milford_4,103,,,,,,30,261,,MID_4,,1837,839.21,MID,2.299
Westport_3,104,,,,,,30,261,,CCT_3,,1951,1337.434,CCT,2.618
Westport_4,105,,,,,,30,261,,MID_4,,1953,1336.541,MID,2.618
Darby_4,106,,,,,,30,115,,DAR_4,,3282,1432.325,DAR,4.861
Darby_1,107,,,,,,30,82,,CYN_1,,3280,1424.928,CYN,4.861
Rahway_4_B,108,,,,,,30,258,,PENN_4,LIN_B,2422,712.179,PENN,3.663
Rahway_A,109,,,,,,30,195,,RAH_A,,3711,715.788,RAH,3.663
Linden_A,110,,,,,,30,118,,RAH_A,,3747,5062.679,RAH,3.617
Linden_B,111,,,,,,30,210,,LIN_B,,3744,5057.268,LIN,3.617
NorthPhiladelphia_4,112,,,,,,30,215,,PENN_4,,2518,323.799,PENN,4.728
NorthPhiladelphia_1_2,113,,,,,,30,215,,PENN_1,PENN_2,3431,555.364,PENN,4.728
Trenton_4,114,,,,,,30,322,,PENN_4,,2462,848.903,PENN,4.27
Trenton_1,115,,,,,,30,288,,PENN_1,,3589,852.206,PENN,4.27
RidleyPark_4,116,,,,,,30,118,,DAR_4,,3266,1333.089,DAR,4.926
RidleyPark_1,117,,,,,,30,118,,CYN_1,,3264,1329.463,CYN,4.926
CornwellsHeights_1,118,,,,,,30,96,,PENN_1,,3523,810.748,PENN,4.513
ProspectPark_4,119,,,,,,30,160,,DAR_4,,3270,523.434,DAR,4.916
ProspectPark_1,120,,,,,,30,120,,CYN_1,,3268,525.933,CYN,4.916
Bristol_4,121,,,,,,30,67,,PENN_4,,3545,1751.118,PENN,4.406
Bristol_1,122,,,,,,30,67,,PENN_1,,3543,1758.329,PENN,4.406
CurtisPark_1,123,,,,,,30,185,,CYN_1,,3280,1424.928,CYN,4.861
CurtisPark_4,124,,,,,,30,185,,DAR_4,,3282,1432.325,DAR,4.861
Fordham_4,125,,,,,,30,180,,GC_4,,4560,429.793,GC,3.201
Fordham_3,126,,,,,,30,212,,GC_3,,1782,424.727,GC,3.201
Norwood_1,127,,,,,,30,136,,CYN_1,,3272,3063.352,CYN,4.897
CrumLynne_4,128,,,,,,30,93,,DAR_4,,3258,1179.894,DAR,4.945
CrumLynne_1,129,,,,,,30,72,,CYN_1,,3256,1180.805,CYN,4.945
Tremont_4,130,,,,,,30,56,,GC_4,,4569,2838.624,GC,3.221
Tremont_3,131,,,,,,30,56,,GC_3,,1785,2838.36,GC,3.221
Westerly_1,132,,,,,,30,136,,BOS_1,,4161,792.672,BOS,1.243
Westerly_2,133,,,,,,30,166,,BOS_2,,4164,787.08,BOS,1.243
HighlandAvenue_4,134,,,,,,30,22,,DAR_4,,3240,970.337,DAR,5.013
HighlandAvenue_1,135,,,,,,30,39,,CYN_1,,3232,970.74,CYN,5.013
Torresdale_1,136,,,,,,30,161,,PENN_1,,3511,463.779,PENN,4.551
Torresdale_4,137,,,,,,30,135,,PENN_4,,2502,443.042,PENN,4.551
OldGreenwich_4,138,,,,,,30,274,,MID_4,,2054,893.619,MID,2.835
OldGreenwich_5,139,,,,,,30,274,,MID_5,,2049,893.52,MID,2.835
GreensFarms_4,140,,,,,,30,155,,MID_4,,1935,1336.378,MID,2.569
GreensFarms_3,141,,,,,,30,155,,CCT_3,,1933,1335.704,CCT,2.569
SharonHill_4,142,,,,,,30,140,,DAR_4,,3278,1009.216,DAR,4.874
SharonHill_1,143,,,,,,30,96,,CYN_1,,3276,1013.1,CYN,4.874
Eddystone_1,144,,,,,,30,81,,CYN_1,,3252,1548.154,CYN,4.958
Eddystone_4,145,,,,,,30,114,,DAR_4,,3254,1539.758,DAR,4.958
Folcroft_4,146,,,,,,30,113,,DAR_4,,3274,3064.405,DAR,4.897
Folcroft_1,147,,,,,,30,113,,CYN_1,,3272,3063.352,CYN,4.897
Mystic_1,148,,,,,,30,212,,BOS_1,,4195,596.211,BOS,1.351
Mystic_2,149,,,,,,30,87,,BOS_2,,4198,590.457,BOS,1.351
Chester_4,150,,,,,,30,97,,DAR_4,,3250,1637.568,DAR,4.975
Chester_1,151,,,,,,30,90,,CYN_1,,3248,1637.404,CYN,4.975
Croydon_1,152,,,,,,30,200,,PENN_1,,3531,2044.125,PENN,4.46
Croydon_4,153,,,,,,30,200,,PENN_4,,2500,2062.111,PENN,4.46
Riverside_5,154,,,,,,30,156,,MID_5,,2055,1165.236,MID,2.851
Riverside_4,155,,,,,,30,156,,MID_4,,2060,1165.505,MID,2.851
CosCob_5,156,,,,,,30,122,,MID_5,,2061,732.429,MID,2.865
CosCob_4,157,,,,,,30,119,,MID_4,,2063,732.239,MID,2.865
Hamilton_1,158,,,,,,30,317,,PENN_1,,3596,8117.92,PENN,4.214
Hamilton_4,159,,,,,,30,317,,PENN_4,,2459,8117.208,PENN,4.214
30thSt_C_D,166,,,,,,30,189,,STA_TH_C,ST_TH_D,3391,801.969,STA_TH,4.769
30thSt_A_B,167,,,,,,30,189,,STA_TH_A,STA_TH_B,701,325.369,STA_TH,4.771
EastNorwalk_3,168,,,,,,30,104,,CCT_3,,1963,1210.814,CCT,2.66
EastNorwalk_4,169,,,,,,30,110,,MID_4,,1965,1211.167,MID,2.66
Tacony_4,170,,,,,,30,74,,PENN_4,,2511,779.658,PENN,4.615
Newark_A,171,,,,,,30,169,,NWK_A,,3093,4299.282,NWK,5.389
Westbrook_1,172,,,,,,30,62,,BOS_1,,4322,1652.317,BOS,1.747
Westbrook_2,173,,,,,,30,62,,BOS_2,,4325,1654.766,BOS,1.747
NewHaven_6_7,174,,,,,,30,218,,STA_NH_6,STA_NH_7,4493,350.752,STA_NH,2.147
NewHaven_8_9,175,,,,,,30,243,,STA_NH_8,STA_NH_9,1481,348.381,STA_NH,2.147
NewHaven_1_3,176,,,,,,30,243,,NH_1,MN_3,4492,349.667,NH,2.147
NewHaven_2_4,177,,,,,,30,252,,MN_2,STA_NH_4,4498,349.885,MN,2.147
30thSt_8_9,178,,,,,,30,381,,STA_TH_8,STA_TH_9,1387,530.891,STA_TH,4.772
30thSt_6_7,179,,,,,,30,381,,STA_TH_6,STA_TH_7,1363,530.1,STA_TH,4.772
Eddington_4,180,,,,,,30,61,,PENN_4,,2481,2559.158,PENN,4.495
NewHavenCR_3,181,,,,,,30,104,,MN_3,,4467,578.103,MN,2.139
NewLondon_2_3,182,,,,,,30,130,,BOS_2,LON_3,4248,645.037,BOS,1.439
Tacony_1,183,,,,,,30,15,,PENN_1,,3480,779.828,PENN,4.615
30thSt_E_F,184,,,,,,30,189,,STA_TH_E,STA_TH_F,704,319.085,STA_TH,4.771
30thSt_2_3,185,,,,,,30,381,,STA_TH_2,STA_TH_3,1376,536.74,STA_TH,4.772
30thSt_4_5,186,,,,,,30,381,,STA_TH_4,STA_TH_5,1378,537.239,STA_TH,4.772
30thSt_10_11,187,,,,,,30,381,,STA_TH_10,STA_TH_11,1386,531.445,STA_TH,4.772
Wilmington_1,188,,,,,,30,327,,WIL_1,,3148,425.684,WIL,5.199
Wilmington_3,189,,,,,,30,342,,SO_3,,3149,291.837,SO,5.202
Pawtucket_1,190,,,,,,30,243,,BOS_1,,3947,793.642,BOS,0.58
Pawtucket_2,191,,,,,,30,243,,BOS_2,,3948,793.608,BOS,0.58
Clinton_1,192,,,,,,30,62,,BOS_1,,4338,1217.321,BOS,1.819
Claymont_4,193,,,,,,30,190,,DAR_4,,3210,1320.43,DAR,5.075
Claymont_1,194,,,,,,30,190,,CYN_1,,3208,1326.505,CYN,5.075
TFGreenAirport,195,,,,,,30,252,,PROV_3,,4093,8827.642,PROV,0.716
WickfordJunction,196,,,,,,30,360,,WCK_3,,4699,1133.367,WCK,0.881
Sharon_2,197,,,,,,30,235,,BOS_2,,3905,475.77,BOS,0.262
Sharon_1,198,,,,,,30,235,,BOS_1,,3902,476.194,BOS,0.262
WestHaven_3,199,,,,,,30,325,,MN_3,,1819,590.764,MN,2.194
WestHaven_4,200,,,,,,30,325,,MID_4,,1822,598.792,MID,2.194
Bridgeport_4,201,,,,,,30,206,,MID_4,,1894,738.201,MID,2.434
Bridgeport_3,202,,,,,,30,208,,CCT_3,,1892,736.4,CCT,2.434
FairfieldMetro_4,203,,,,,,30,311,,MID_4,,1911,1236.854,MID,2.488
SouthNorwalk_4,204,,,,,,30,258,,MID_4,,1977,1072.133,MID,2.681
SouthNorwalk_3,205,,,,,,30,258,,CCT_3,,1975,1074.281,CCT,2.681
NorotonHeights_3,206,,,,,,30,256,,CCT_3,,2011,1177.817,CCT,2.762
NorotonHeights_4,207,,,,,,30,256,,MID_4,,2013,1177.81,MID,2.762
Greenwich_5,208,,,,,,30,255,,MID_5,,2073,331.262,MID,2.894
Greenwich_4,209,,,,,,30,255,,MID_4,,2076,342.321,MID,2.894
PortChester_4,210,,,,,,30,100,,MID_4,,2100,1755.428,MID,2.943
PortChester_3,211,,,,,,30,100,,MID_3,,2095,1751.024,MID,2.944
Rye_3,212,,,,,,30,250,,MID_3,,2106,461.321,MID,2.963
Rye_4,213,,,,,,30,250,,MID_4,,2104,85.935,MID,2.96
Larchmont_4,214,,,,,,30,257,,MID_4,,2129,4643.239,MID,3.031
Larchmont_3,215,,,,,,30,257,,MID_3,,2127,4643.419,MID,3.031
Pelham_4,216,,,,,,30,260,,GC_4,,2151,1819.73,GC,3.106
Pelham_3,217,,,,,,30,260,,GC_3,,2154,1820.346,GC,3.106
MountVernonEast_4,218,,,,,,30,260,,GC_4,,2158,302.476,GC,3.127
MountVernonEast_3,219,,,,,,30,294,,GC_3,,2161,302.424,GC,3.127
WilliamsBridge_3,220,,,,,,30,109,,GC_3,,1777,1452.944,GC,3.174
WilliamsBridge_4,221,,,,,,30,128,,GC_4,,4544,1452.15,GC,3.174
BotanicalGarden_4,222,,,,,,30,204,,GC_4,,4553,712.658,GC,3.191
BotanicalGarden_3,223,,,,,,30,204,,GC_3,,4558,712.358,GC,3.191
Melrose_3,224,,,,,,30,56,,GC_3,,1787,1005.118,GC,3.242
CoOpCity_3_4,225,,,,,,30,268,,PSA_3,PSA_4,4649,1288.826,PSA,3.185
MorrisPark_3_4,226,,,,,,30,248,,PSA_3,PSA_4,4663,588.608,PSA,3.185
Parkchester_3_4,227,,,,,,30,330,,PSA_3,PSA_4,4692,334.571,PSA,3.185
HuntsPoint_3_5,228,,,,,,30,290,,PSA_3,PSA_5,4688,374.563,PSA,3.185
SeacaucusJunction_1,229,,,,,,30,364,,NJ_1,,2488,2035.273,NJ,3.408
SeacaucusJunction_3_4,230,,,,,,30,364,,JC_3,JC_4,2487,2076.127,JC,3.408
SeacaucusJunction_2,231,,,,,,30,364,,NJ_2,,2476,2753.746,NJ,3.404
Harrison_3,232,,,,,,30,217,,PENN_3,,2400,153.001,PENN,3.494
NorthElizabeth_1,233,,,,,,30,159,,PENN_1,,3762,308.2,PENN,3.566
NorthElizabeth_4,234,,,,,,30,217,,PENN_4,,2416,308.548,PENN,3.567
Elizabeth_1,235,,,,,,30,212,,PENN_1,,3756,1473.19,PENN,3.574
Elizabeth_4,236,,,,,,30,212,,PENN_4,,2415,1480.394,PENN,3.574
Metropark_1,237,,,,,,30,315,,PENN_1,,3678,1094.868,PENN,3.728
Metropark_4,238,,,,,,30,345,,PENN_4,,2434,1098.309,PENN,3.728
Metuchen_1_1,239,,,,,,30,208,,PENN_1,MET_1,3658,1213.845,PENN,3.772
Metuchen_4_4,240,,,,,,30,188,,PENN_4,MET_4,2439,1213.103,PENN,3.772
Edison_1,241,,,,,,30,208,,PENN_1,,3634,440.308,PENN,3.825
Edison_4,242,,,,,,30,208,,PENN_4,,2447,439.107,PENN,3.825
NewBrunswick_1,243,,,,,,30,208,,PENN_1,,3619,3747.995,PENN,3.883
NewBrunswick_4,244,,,,,,30,208,,PENN_4,,2451,346.246,PENN,3.863
JerseyAvenue_4,245,,,,,,30,152,,PENN_4,,2452,3747.636,PENN,3.883
Eddington_1,246,,,,,,30,22,,PENN_1,,3525,2541.026,PENN,4.495
Holmesburg_4,247,,,,,,30,71,,PENN_4,,2510,298.52,PENN,4.595
Holmesburg_1,248,,,,,,30,71,,PENN_1,,3483,1341.043,PENN,4.604
Bridesburg_4,249,,,,,,30,25,,PENN_4,,3459,1644.763,PENN,4.65
Bridesburg_1,250,,,,,,30,25,,PENN_1,,3469,1633.645,PENN,4.65
Glenolden_4,251,,,,,,30,129,,DAR_4,,3274,3064.405,DAR,4.897
Glenolden_1,252,,,,,,30,76,,CYN_1,,3272,3063.352,CYN,4.897
Norwood_4,253,,,,,,30,141,,DAR_4,,3274,3064.405,DAR,4.897
MartinStateAirport,254,,,,,,30,60,,MID_A,,2968,4800.395,MID,6.157
CornwellsHeights_4,255,,,,,,30,287,,PENN_4,,2501,791.78,PENN,4.513
JerseyAvenue_5,256,,,,,,30,152,,JAV_5,,,,,
Harrison_1,257,,,,,,30,224,,NWK_1,,3785,154.995,NWK,3.494
Melrose_4,258,,,,,,30,56,,GC_4,,4575,1014.479,GC,3.242
NewCob_5,259,,,,,,30,122,,CCB_5,,841,1233.439,CCB,2.865
NewCob_4,260,,,,,,30,119,,CCB_4,,843,1174.832,CCB,2.864
NewMilford_4,261,,,,,,30,95,,MIR_4,,767,864.146,MIR,2.298
NewMilford_1,262,,,,,,30,95,,MIR_1,,765,863.815,MIR,2.298
NewLondon_1,263,,,,,,30,215,,BOS_1,,4245,638.716,BOS,1.439
Providence_3_5,264,,,,,,30,332,,PROV_3,PROV_5,4005,289.75,PROV,0.634
Providence_1_2,265,,,,,,30,332,,BOS_1,BOS_2,4003,289.842,BOS,0.634
Ruggles_1_3,266,,,,,,30,318,,BOS_1,BOS_3,3820,1979.333,BOS,0.032
ForestHills,267,,,,,,30,312,,BOS_3,NEE_5,3875,471.906,BOS,0.077
GrandCentral_1,268,,,,,,30,286,,STA_GC_1,,1135,333.25,STA_GC,3.329
MarcusHook_4,269,,,,,,30,85,,DAR_4,,3218,2233.328,DAR,5.047
MarcusHook_1,270,,,,,,30,124,,CYN_1,,3216,2232.322,CYN,5.047
NewWestBaltimore_2,271,,,,,,30,32,,FDT_2,,3330,1470.299,FDT,6.376
NewWestBaltimore_1,272,,,,,,30,32,,FDT_1,,693,1474.869,FDT,6.375